[
  {
    "name": "Bloody Bluff Landing, Apalachicola National Forest, FLORIDA",
    "description": "",
    "url": "https://www.youtube.com/embed/hMIc-aEdSss",
    "lat": 29.87289,
    "lon": -85.010433,
    "src": "tws",
    "fee": "Unknown",
    "org": "Unknown",
    "ratings_count": 0,
    "ratings_value": 0,
    "type": "campsite"
  },
  {
    "name": "Joe Kurz Wanter Management Area, Gay Georgia",
    "description": "",
    "url": "https://www.youtube.com/embed/G9NJmTeZI1k",
    "lat": 33.1148695,
    "lon": -84.5337489,
    "src": "tws",
    "fee": "Unknown",
    "org": "Unknown",
    "ratings_count": 0,
    "ratings_value": 0,
    "type": "campsite"
  },
  {
    "name": "Cypress Creek Preserve",
    "description": "",
    "url": "https://www.youtube.com/embed/0YfAcjjvj_8",
    "lat": 28.2382498,
    "lon": -82.4304575,
    "src": "tws",
    "fee": "Unknown",
    "org": "Unknown",
    "ratings_count": 0,
    "ratings_value": 0,
    "type": "campsite"
  },
  {
    "name": "Smith Creek Landing Campground- Apalachicola Wildlife Area, Florida",
    "description": "",
    "url": "https://www.youtube.com/embed/4QVjvBO-XYQ",
    "lat": 29.9182,
    "lon": -85.0148,
    "src": "tws",
    "fee": "Unknown",
    "org": "Unknown",
    "ratings_count": 0,
    "ratings_value": 0,
    "type": "campsite"
  },
  {
    "name": "Van Horn Campground- Apalachicola River Wildlife & Environmental Area",
    "description": "",
    "url": "https://www.youtube.com/embed/uYwHtME2Rms",
    "lat": 29.8959125,
    "lon": -85.0118281,
    "src": "tws",
    "fee": "Unknown",
    "org": "Unknown",
    "ratings_count": 0,
    "ratings_value": 0,
    "type": "campsite"
  },
  {
    "name": "Gardner Landing Campground",
    "description": "",
    "url": "https://www.youtube.com/embed/fO2DtPNWFDM",
    "lat": 29.8173457,
    "lon": -84.9870877,
    "src": "tws",
    "fee": "Unknown",
    "org": "Unknown",
    "ratings_count": 0,
    "ratings_value": 0,
    "type": "campsite"
  },
  {
    "name": "Santee Coastal Reserve",
    "description": "",
    "url": "https://www.youtube.com/embed/1NPxpW82uTg",
    "lat": 33.1540365,
    "lon": -79.3674921,
    "src": "tws",
    "fee": "Unknown",
    "org": "Unknown",
    "ratings_count": 0,
    "ratings_value": 0,
    "type": "campsite"
  },
  {
    "name": "Hickory Hammock Campground Review- Lorida, Florida",
    "description": "",
    "url": "https://www.youtube.com/embed/dr6PWynwJF4",
    "lat": 27.4478,
    "lon": -81.1771,
    "src": "tws",
    "fee": "Unknown",
    "org": "Unknown",
    "ratings_count": 0,
    "ratings_value": 0,
    "type": "campsite"
  },
  {
    "name": "Pipeline Road Dispersed Camping",
    "description": "",
    "url": "https://www.youtube.com/embed/7O_jPdAkJRM",
    "lat": 32.371024,
    "lon": -111.384046,
    "src": "tws",
    "fee": "Unknown",
    "org": "Unknown",
    "ratings_count": 0,
    "ratings_value": 0,
    "type": "campsite"
  },
  {
    "name": "742C Dispersed",
    "description": "",
    "url": "https://www.youtube.com/embed/wU8pozu-xoU",
    "lat": 38.8530863,
    "lon": -106.5630822,
    "src": "tws",
    "fee": "Unknown",
    "org": "Unknown",
    "ratings_count": 0,
    "ratings_value": 0,
    "type": "campsite"
  },
  {
    "name": "No Name Road Dispersed Camp",
    "description": "",
    "url": "https://www.youtube.com/embed/wU8pozu-xoU",
    "lat": 38.8931654,
    "lon": -106.5591266,
    "src": "tws",
    "fee": "Unknown",
    "org": "Unknown",
    "ratings_count": 0,
    "ratings_value": 0,
    "type": "campsite"
  },
  {
    "name": "742.3D Dispersed (742.8 on Google Maps)",
    "description": "",
    "url": "https://www.youtube.com/embed/wU8pozu-xoU",
    "lat": 38.9062574,
    "lon": -106.5653413,
    "src": "tws",
    "fee": "Unknown",
    "org": "Unknown",
    "ratings_count": 0,
    "ratings_value": 0,
    "type": "campsite"
  },
  {
    "name": "742.3G Dispersed",
    "description": "",
    "url": "https://www.youtube.com/embed/wU8pozu-xoU",
    "lat": 38.9163388,
    "lon": -106.5893115,
    "src": "tws",
    "fee": "Unknown",
    "org": "Unknown",
    "ratings_count": 0,
    "ratings_value": 0,
    "type": "campsite"
  },
  {
    "name": "Red Mountain Road",
    "description": "",
    "url": "https://www.youtube.com/embed/wU8pozu-xoU",
    "lat": 38.926841,
    "lon": -106.592151,
    "src": "tws",
    "fee": "Unknown",
    "org": "Unknown",
    "ratings_count": 0,
    "ratings_value": 0,
    "type": "campsite"
  },
  {
    "name": "748 Dispersed",
    "description": "",
    "url": "https://www.youtube.com/embed/wU8pozu-xoU",
    "lat": 38.9255368,
    "lon": -106.5999807,
    "src": "tws",
    "fee": "Unknown",
    "org": "Unknown",
    "ratings_count": 0,
    "ratings_value": 0,
    "type": "campsite"
  },
  {
    "name": "Raspberry Gulch & Browns Creek Dispersed Camping Area",
    "description": "",
    "url": "https://www.youtube.com/embed/1I3WzEGaJXE",
    "lat": 38.6938674,
    "lon": -106.1335944,
    "src": "tws",
    "fee": "Unknown",
    "org": "Unknown",
    "ratings_count": 0,
    "ratings_value": 0,
    "type": "campsite"
  },
  {
    "name": "Muchwater Recreation Area- Dispersed Camping",
    "description": "",
    "url": "https://www.youtube.com/embed/ZmWOcAWBiHg",
    "lat": 47.309887,
    "lon": -114.848688,
    "src": "tws",
    "fee": "Unknown",
    "org": "Unknown",
    "ratings_count": 0,
    "ratings_value": 0,
    "type": "campsite"
  },
  {
    "name": "North Fork Road Dispersed Camping",
    "description": "",
    "url": "https://www.youtube.com/embed/0llxG33OdoQ",
    "lat": 48.499334,
    "lon": -114.131517,
    "src": "tws",
    "fee": "Unknown",
    "org": "Unknown",
    "ratings_count": 0,
    "ratings_value": 0,
    "type": "campsite"
  },
  {
    "name": "Canyon Creek Dispersed",
    "description": "",
    "url": "https://www.youtube.com/embed/0llxG33OdoQ",
    "lat": 48.463612,
    "lon": -114.16732,
    "src": "tws",
    "fee": "Unknown",
    "org": "Unknown",
    "ratings_count": 0,
    "ratings_value": 0,
    "type": "campsite"
  },
  {
    "name": "McGinnis Creek Large Boondocking Area",
    "description": "",
    "url": "https://www.youtube.com/embed/0llxG33OdoQ",
    "lat": 48.531014,
    "lon": -114.157493,
    "src": "tws",
    "fee": "Unknown",
    "org": "Unknown",
    "ratings_count": 0,
    "ratings_value": 0,
    "type": "campsite"
  },
  {
    "name": "Middle Fork Flathead River (Blankenship Beach)",
    "description": "",
    "url": "https://www.youtube.com/embed/zO8kY0x0BoY",
    "lat": 48.4655217,
    "lon": -114.0746367,
    "src": "tws",
    "fee": "Unknown",
    "org": "Unknown",
    "ratings_count": 0,
    "ratings_value": 0,
    "type": "campsite"
  },
  {
    "name": "Glacier Rim River Access Camping Site",
    "description": "",
    "url": "https://www.youtube.com/embed/zO8kY0x0BoY",
    "lat": 48.4953196,
    "lon": -114.1293655,
    "src": "tws",
    "fee": "Unknown",
    "org": "Unknown",
    "ratings_count": 0,
    "ratings_value": 0,
    "type": "campsite"
  },
  {
    "name": "Salmon River Dispersed Camping #2",
    "description": "",
    "url": "https://www.youtube.com/embed/5WWH8Vb49Ow",
    "lat": 44.1709288,
    "lon": -114.9059779,
    "src": "tws",
    "fee": "Unknown",
    "org": "Unknown",
    "ratings_count": 0,
    "ratings_value": 0,
    "type": "campsite"
  },
  {
    "name": "Salmon River Dispersed Camping Spot #3",
    "description": "",
    "url": "https://www.youtube.com/embed/5WWH8Vb49Ow",
    "lat": 44.1668533,
    "lon": -114.894279,
    "src": "tws",
    "fee": "Unknown",
    "org": "Unknown",
    "ratings_count": 0,
    "ratings_value": 0,
    "type": "campsite"
  },
  {
    "name": "Salmon River Dispersed Camping Spot #1",
    "description": "",
    "url": "https://www.youtube.com/embed/5WWH8Vb49Ow",
    "lat": 44.1746792,
    "lon": -114.9228609,
    "src": "tws",
    "fee": "Unknown",
    "org": "Unknown",
    "ratings_count": 0,
    "ratings_value": 0,
    "type": "campsite"
  },
  {
    "name": "Miners Canyon Dispersed Camping",
    "description": "",
    "url": "https://www.youtube.com/embed/IhUtB68Ks9E",
    "lat": 40.2066944,
    "lon": -111.8945,
    "src": "tws",
    "fee": "Unknown",
    "org": "Unknown",
    "ratings_count": 0,
    "ratings_value": 0,
    "type": "campsite"
  },
  {
    "name": "Beas Lewis Dispersed Camping",
    "description": "",
    "url": "https://www.youtube.com/embed/TM8RaPAfaxk",
    "lat": 38.2985625,
    "lon": -111.3931406,
    "src": "tws",
    "fee": "Unknown",
    "org": "Unknown",
    "ratings_count": 0,
    "ratings_value": 0,
    "type": "campsite"
  },
  {
    "name": "Capitol Reef Overflow Dispsersed Camping",
    "description": "",
    "url": "https://www.youtube.com/embed/TM8RaPAfaxk",
    "lat": 38.3265243,
    "lon": -111.3666824,
    "src": "tws",
    "fee": "Unknown",
    "org": "Unknown",
    "ratings_count": 0,
    "ratings_value": 0,
    "type": "campsite"
  },
  {
    "name": "Crystal Forest Campground and Petrified Forest RV Park",
    "description": "",
    "url": "https://www.youtube.com/embed/MTYdI7A0zBo",
    "lat": 34.7927827,
    "lon": -109.8914773,
    "src": "tws",
    "fee": "Unknown",
    "org": "Unknown",
    "ratings_count": 0,
    "ratings_value": 0,
    "type": "campsite"
  },
  {
    "name": "Imperial Dam Long Term Visitor Area",
    "description": "",
    "url": "https://www.youtube.com/embed/K1k4uqnkjEk",
    "lat": 32.9011677,
    "lon": -114.4946723,
    "src": "tws",
    "fee": "Unknown",
    "org": "Unknown",
    "ratings_count": 0,
    "ratings_value": 0,
    "type": "campsite"
  },
  {
    "name": "Joshua Tree South Dispersed Camping",
    "description": "",
    "url": "https://www.youtube.com/embed/EuoRHO_EIu8",
    "lat": 33.674567,
    "lon": -115.804787,
    "src": "tws",
    "fee": "Unknown",
    "org": "Unknown",
    "ratings_count": 0,
    "ratings_value": 0,
    "type": "campsite"
  },
  {
    "name": "Pilot Knob Long Term Visitor Area (LTVA)",
    "description": "",
    "url": "https://www.youtube.com/embed/-_rB_66t5Uk",
    "lat": 32.7426017,
    "lon": -114.7549428,
    "src": "tws",
    "fee": "Unknown",
    "org": "Unknown",
    "ratings_count": 0,
    "ratings_value": 0,
    "type": "campsite"
  },
  {
    "name": "Sidewinder BLM Camping",
    "description": "",
    "url": "https://www.youtube.com/embed/nntrmA5lgLo",
    "lat": 32.7534903,
    "lon": -114.7545885,
    "src": "tws",
    "fee": "Unknown",
    "org": "Unknown",
    "ratings_count": 0,
    "ratings_value": 0,
    "type": "campsite"
  },
  {
    "name": "Gunsight Wash BLM area",
    "description": "",
    "url": "https://www.youtube.com/embed/nY8jV5xqZJc",
    "lat": 32.2395207,
    "lon": -112.7508238,
    "src": "tws",
    "fee": "Unknown",
    "org": "Unknown",
    "ratings_count": 0,
    "ratings_value": 0,
    "type": "campsite"
  },
  {
    "name": "Las Cienegas NCA/Empire Ranch- Cieneguita Camp & Airstrip Group Camp",
    "description": "",
    "url": "https://www.youtube.com/embed/arcfiFxAvZc",
    "lat": 31.768716,
    "lon": -110.682699,
    "src": "tws",
    "fee": "Unknown",
    "org": "Unknown",
    "ratings_count": 0,
    "ratings_value": 0,
    "type": "campsite"
  },
  {
    "name": "Coronado National Forest: Forest Road 687",
    "description": "",
    "url": "https://www.youtube.com/embed/i6hpFl2p_iA",
    "lat": 31.8467253,
    "lon": -110.0032788,
    "src": "tws",
    "fee": "Unknown",
    "org": "Unknown",
    "ratings_count": 0,
    "ratings_value": 0,
    "type": "campsite"
  },
  {
    "name": "Tanque Road Dispersed Camping",
    "description": "",
    "url": "https://www.youtube.com/embed/0yNMH_FYQ1Y",
    "lat": 32.60843,
    "lon": -109.67819,
    "src": "tws",
    "fee": "Unknown",
    "org": "Unknown",
    "ratings_count": 0,
    "ratings_value": 0,
    "type": "campsite"
  },
  {
    "name": "Hog Canyon Dispersed",
    "description": "",
    "url": "https://www.youtube.com/embed/0yNMH_FYQ1Y",
    "lat": 32.5793104,
    "lon": -109.8504028,
    "src": "tws",
    "fee": "Unknown",
    "org": "Unknown",
    "ratings_count": 0,
    "ratings_value": 0,
    "type": "campsite"
  },
  {
    "name": "Stockton Pass Disperesed Camping",
    "description": "",
    "url": "https://www.youtube.com/embed/0yNMH_FYQ1Y",
    "lat": 32.591676,
    "lon": -109.853851,
    "src": "tws",
    "fee": "Unknown",
    "org": "Unknown",
    "ratings_count": 0,
    "ratings_value": 0,
    "type": "campsite"
  },
  {
    "name": "FR 112 Dispersed Camping",
    "description": "",
    "url": "https://www.youtube.com/embed/8U3p86oUc6k",
    "lat": 33.985429,
    "lon": -109.5083154,
    "src": "tws",
    "fee": "Unknown",
    "org": "Unknown",
    "ratings_count": 0,
    "ratings_value": 0,
    "type": "campsite"
  },
  {
    "name": "Badger Creek Dispersed Camping",
    "description": "",
    "url": "https://www.youtube.com/embed/8U3p86oUc6k",
    "lat": 33.98201,
    "lon": -109.49309,
    "src": "tws",
    "fee": "Unknown",
    "org": "Unknown",
    "ratings_count": 0,
    "ratings_value": 0,
    "type": "campsite"
  },
  {
    "name": "White Mountain Dispersed",
    "description": "",
    "url": "https://www.youtube.com/embed/8U3p86oUc6k",
    "lat": 34.0761822,
    "lon": -109.4767156,
    "src": "tws",
    "fee": "Unknown",
    "org": "Unknown",
    "ratings_count": 0,
    "ratings_value": 0,
    "type": "campsite"
  },
  {
    "name": "Forest Road 117 Dispersed",
    "description": "",
    "url": "https://www.youtube.com/embed/8U3p86oUc6k",
    "lat": 34.053658,
    "lon": -109.5465127,
    "src": "tws",
    "fee": "Unknown",
    "org": "Unknown",
    "ratings_count": 0,
    "ratings_value": 0,
    "type": "campsite"
  },
  {
    "name": "Madden Peak Dispersed Camping",
    "description": "",
    "url": "https://www.youtube.com/embed/nqPQWb51Www",
    "lat": 37.334354,
    "lon": -108.209925,
    "src": "tws",
    "fee": "Unknown",
    "org": "Unknown",
    "ratings_count": 0,
    "ratings_value": 0,
    "type": "campsite"
  },
  {
    "name": "Turkey Springs Dispersed Camping",
    "description": "",
    "url": "https://www.youtube.com/embed/dcDXqpTPWw4",
    "lat": 37.3333625,
    "lon": -107.1269844,
    "src": "tws",
    "fee": "Unknown",
    "org": "Unknown",
    "ratings_count": 0,
    "ratings_value": 0,
    "type": "campsite"
  },
  {
    "name": "Midland Dispersed Camping",
    "description": "",
    "url": "https://www.youtube.com/embed/Fx629ddwCUQ",
    "lat": 38.8302724,
    "lon": -106.093343,
    "src": "tws",
    "fee": "Unknown",
    "org": "Unknown",
    "ratings_count": 0,
    "ratings_value": 0,
    "type": "campsite"
  },
  {
    "name": "Elephant Rock campground",
    "description": "",
    "url": "https://www.youtube.com/embed/Fx629ddwCUQ",
    "lat": 38.8846333,
    "lon": -106.1521893,
    "src": "tws",
    "fee": "Unknown",
    "org": "Unknown",
    "ratings_count": 0,
    "ratings_value": 0,
    "type": "campsite"
  },
  {
    "name": "Tunnel View Recreation Area",
    "description": "",
    "url": "https://www.youtube.com/embed/Fx629ddwCUQ",
    "lat": 38.868562,
    "lon": -106.147364,
    "src": "tws",
    "fee": "Unknown",
    "org": "Unknown",
    "ratings_count": 0,
    "ratings_value": 0,
    "type": "campsite"
  },
  {
    "name": "Bootjack Dispersed Camping",
    "description": "",
    "url": "https://www.youtube.com/embed/AKBulcUeUDQ",
    "lat": 44.5890521,
    "lon": -111.3460861,
    "src": "tws",
    "fee": "Unknown",
    "org": "Unknown",
    "ratings_count": 0,
    "ratings_value": 0,
    "type": "campsite"
  },
  {
    "name": "Hartman Rocks",
    "description": "",
    "url": "https://www.youtube.com/embed/Fx629ddwCUQ",
    "lat": 38.492384,
    "lon": -106.98196,
    "src": "tws",
    "fee": "Unknown",
    "org": "Unknown",
    "ratings_count": 0,
    "ratings_value": 0,
    "type": "campsite"
  },
  {
    "name": "Pump Station BLM",
    "description": "",
    "url": "https://www.youtube.com/embed/F67ufrcs7NQ",
    "lat": 32.44468,
    "lon": -111.37206,
    "src": "tws",
    "fee": "Unknown",
    "org": "Unknown",
    "ratings_count": 0,
    "ratings_value": 0,
    "type": "campsite"
  },
  {
    "name": "Bachelor Rd Dispersed (Creede Disperesed Camping)",
    "description": "",
    "url": "https://www.youtube.com/embed/ejj041vmK3U",
    "lat": 37.8502185,
    "lon": -106.9437316,
    "src": "tws",
    "fee": "Unknown",
    "org": "Unknown",
    "ratings_count": 0,
    "ratings_value": 0,
    "type": "campsite"
  },
  {
    "name": "Buckeye Gulch Dispersed Camping",
    "description": "",
    "url": "https://www.youtube.com/embed/8Dmnpt2ALvk",
    "lat": 39.3077985,
    "lon": -106.250263,
    "src": "tws",
    "fee": "Unknown",
    "org": "Unknown",
    "ratings_count": 0,
    "ratings_value": 0,
    "type": "campsite"
  },
  {
    "name": "Mill Creek Dispersed Campsite",
    "description": "",
    "url": "https://www.youtube.com/embed/ylw8f4dLPms",
    "lat": 40.6996305,
    "lon": -105.858993,
    "src": "tws",
    "fee": "Unknown",
    "org": "Unknown",
    "ratings_count": 0,
    "ratings_value": 0,
    "type": "campsite"
  },
  {
    "name": "Walton Peak Disperesed",
    "description": "",
    "url": "",
    "lat": 40.3887998,
    "lon": -106.659514,
    "src": "tws",
    "fee": "Unknown",
    "org": "Unknown",
    "ratings_count": 0,
    "ratings_value": 0,
    "type": "campsite"
  },
  {
    "name": "Rabbit Ears East Dispersed",
    "description": "",
    "url": "",
    "lat": 40.385772,
    "lon": -106.6189983,
    "src": "tws",
    "fee": "Unknown",
    "org": "Unknown",
    "ratings_count": 0,
    "ratings_value": 0,
    "type": "campsite"
  },
  {
    "name": "Rabbit Ears West Dispersed",
    "description": "",
    "url": "",
    "lat": 40.375817,
    "lon": -106.7326278,
    "src": "tws",
    "fee": "Unknown",
    "org": "Unknown",
    "ratings_count": 0,
    "ratings_value": 0,
    "type": "campsite"
  },
  {
    "name": "Slate River Dispersed",
    "description": "",
    "url": "https://www.youtube.com/embed/LdGeSZxBGQQ",
    "lat": 38.9318178,
    "lon": -107.0497426,
    "src": "tws",
    "fee": "Unknown",
    "org": "Unknown",
    "ratings_count": 0,
    "ratings_value": 0,
    "type": "campsite"
  },
  {
    "name": "Washington Gulch Dispersed Camping",
    "description": "",
    "url": "https://www.youtube.com/embed/LdGeSZxBGQQ",
    "lat": 38.9339621,
    "lon": -107.0179525,
    "src": "tws",
    "fee": "Unknown",
    "org": "Unknown",
    "ratings_count": 0,
    "ratings_value": 0,
    "type": "campsite"
  },
  {
    "name": "San Luis Lake Campground",
    "description": "",
    "url": "https://www.youtube.com/embed/hFZ9FAxDwpk",
    "lat": 37.6765816,
    "lon": -105.7340661,
    "src": "tws",
    "fee": "Unknown",
    "org": "Unknown",
    "ratings_count": 0,
    "ratings_value": 0,
    "type": "campsite"
  },
  {
    "name": "Forest Road 9350 Dispersed Camping",
    "description": "",
    "url": "https://www.youtube.com/embed/7nWppvqnvi0",
    "lat": 34.3376032,
    "lon": -110.9709761,
    "src": "tws",
    "fee": "Unknown",
    "org": "Unknown",
    "ratings_count": 0,
    "ratings_value": 0,
    "type": "campsite"
  },
  {
    "name": "Vulture Peak Dispersed Site",
    "description": "",
    "url": "https://www.youtube.com/embed/JTfwS0Y-uzA",
    "lat": 33.9189326,
    "lon": -112.7971268,
    "src": "tws",
    "fee": "Unknown",
    "org": "Unknown",
    "ratings_count": 0,
    "ratings_value": 0,
    "type": "campsite"
  },
  {
    "name": "Indian Bread Rocks Recreation Area",
    "description": "",
    "url": "https://www.youtube.com/embed/22yLOfLTZnI",
    "lat": 32.238637,
    "lon": -109.4997239,
    "src": "tws",
    "fee": "Unknown",
    "org": "Unknown",
    "ratings_count": 0,
    "ratings_value": 0,
    "type": "campsite"
  },
  {
    "name": "Lava Flat Designated Dispersed Camping Area (recgovnpsdata)",
    "description": "",
    "url": "https://www.youtube.com/embed/22yLOfLTZnI",
    "lat": 37.542,
    "lon": -112.645,
    "src": "tws",
    "fee": "Unknown",
    "org": "Unknown",
    "ratings_count": 0,
    "ratings_value": 0,
    "type": "campsite"
  },
  {
    "name": "Sahara Creek DNR Horse Camp",
    "description": "",
    "url": "https://www.youtube.com/embed/22yLOfLTZnI",
    "lat": 46.758252,
    "lon": -122.0857782,
    "src": "tws",
    "fee": "Unknown",
    "org": "Unknown",
    "ratings_count": 0,
    "ratings_value": 0,
    "type": "campsite"
  },
  {
    "name": "Valley of the Gods",
    "description": "",
    "url": "https://www.youtube.com/embed/22yLOfLTZnI",
    "lat": 37.3148971,
    "lon": -109.8530466,
    "src": "tws",
    "fee": "Unknown",
    "org": "Unknown",
    "ratings_count": 0,
    "ratings_value": 0,
    "type": "campsite"
  },
  {
    "name": "Bootjack Dispersed Camping",
    "description": "",
    "url": "https://www.youtube.com/embed/22yLOfLTZnI",
    "lat": 44.5766827,
    "lon": -111.3386256,
    "src": "tws",
    "fee": "Unknown",
    "org": "Unknown",
    "ratings_count": 0,
    "ratings_value": 0,
    "type": "campsite"
  },
  {
    "name": "Bennett Field Family Campground",
    "description": "",
    "url": "https://www.youtube.com/embed/22yLOfLTZnI",
    "lat": 29.1893471,
    "lon": -81.1679906,
    "src": "tws",
    "fee": "Unknown",
    "org": "Unknown",
    "ratings_count": 0,
    "ratings_value": 0,
    "type": "campsite"
  },
  {
    "name": "Franklin Mountains State Park",
    "description": "",
    "url": "https://www.youtube.com/embed/tPYUCj5Am3M",
    "lat": 31.9117027,
    "lon": -106.5173673,
    "src": "tws",
    "fee": "Unknown",
    "org": "Unknown",
    "ratings_count": 0,
    "ratings_value": 0,
    "type": "campsite"
  },
  {
    "name": "North Pole Road  (Site 3)",
    "description": "",
    "url": "https://www.youtube.com/embed/eL8G6JAZoIA",
    "lat": 43.7672178,
    "lon": -103.7288425,
    "src": "tws",
    "fee": "Unknown",
    "org": "Unknown",
    "ratings_count": 0,
    "ratings_value": 0,
    "type": "campsite"
  },
  {
    "name": "North Pole Road (Site 4)",
    "description": "",
    "url": "https://www.youtube.com/embed/eL8G6JAZoIA",
    "lat": 43.7717068,
    "lon": -103.7270717,
    "src": "tws",
    "fee": "Unknown",
    "org": "Unknown",
    "ratings_count": 0,
    "ratings_value": 0,
    "type": "campsite"
  },
  {
    "name": "Sprag Road Airport Dispersed",
    "description": "",
    "url": "https://www.youtube.com/embed/eL8G6JAZoIA",
    "lat": 43.7326862,
    "lon": -103.6320882,
    "src": "tws",
    "fee": "Unknown",
    "org": "Unknown",
    "ratings_count": 0,
    "ratings_value": 0,
    "type": "campsite"
  },
  {
    "name": "Wabash Spring Road Dispersed",
    "description": "",
    "url": "https://www.youtube.com/embed/eL8G6JAZoIA",
    "lat": 43.748119,
    "lon": -103.6606563,
    "src": "tws",
    "fee": "Unknown",
    "org": "Unknown",
    "ratings_count": 0,
    "ratings_value": 0,
    "type": "campsite"
  },
  {
    "name": "North Pole Road (Site 1)",
    "description": "",
    "url": "https://www.youtube.com/embed/eL8G6JAZoIA",
    "lat": 43.7510393,
    "lon": -103.7334189,
    "src": "tws",
    "fee": "Unknown",
    "org": "Unknown",
    "ratings_count": 0,
    "ratings_value": 0,
    "type": "campsite"
  },
  {
    "name": "North Pole Road (Site 2)",
    "description": "",
    "url": "https://www.youtube.com/embed/eL8G6JAZoIA",
    "lat": 43.7646815,
    "lon": -103.7275059,
    "src": "tws",
    "fee": "Unknown",
    "org": "Unknown",
    "ratings_count": 0,
    "ratings_value": 0,
    "type": "campsite"
  },
  {
    "name": "North Pole Site (small rig only)",
    "description": "",
    "url": "https://www.youtube.com/embed/eL8G6JAZoIA",
    "lat": 43.7625029,
    "lon": -103.7298004,
    "src": "tws",
    "fee": "Unknown",
    "org": "Unknown",
    "ratings_count": 0,
    "ratings_value": 0,
    "type": "campsite"
  },
  {
    "name": "Custer Limestone Road Site",
    "description": "",
    "url": "https://www.youtube.com/embed/eL8G6JAZoIA",
    "lat": 43.805832,
    "lon": -103.7573648,
    "src": "tws",
    "fee": "Unknown",
    "org": "Unknown",
    "ratings_count": 0,
    "ratings_value": 0,
    "type": "campsite"
  },
  {
    "name": "Custer Limestone Road Site",
    "description": "",
    "url": "https://www.youtube.com/embed/eL8G6JAZoIA",
    "lat": 43.8059917,
    "lon": -103.7619532,
    "src": "tws",
    "fee": "Unknown",
    "org": "Unknown",
    "ratings_count": 0,
    "ratings_value": 0,
    "type": "campsite"
  },
  {
    "name": "Custer Limestone Road Site",
    "description": "",
    "url": "https://www.youtube.com/embed/eL8G6JAZoIA",
    "lat": 43.8058096,
    "lon": -103.7579851,
    "src": "tws",
    "fee": "Unknown",
    "org": "Unknown",
    "ratings_count": 0,
    "ratings_value": 0,
    "type": "campsite"
  },
  {
    "name": "Belle Fourche Dispersed Camping",
    "description": "",
    "url": "https://www.youtube.com/embed/5cFjZbQstU4",
    "lat": 44.729981,
    "lon": -103.7186727,
    "src": "tws",
    "fee": "Unknown",
    "org": "Unknown",
    "ratings_count": 0,
    "ratings_value": 0,
    "type": "campsite"
  },
  {
    "name": "Grouse Mountain Dispersed Camping",
    "description": "",
    "url": "https://www.youtube.com/embed/SgmVykzpNAQ",
    "lat": 44.3194171,
    "lon": -106.8717551,
    "src": "tws",
    "fee": "Unknown",
    "org": "Unknown",
    "ratings_count": 0,
    "ratings_value": 0,
    "type": "campsite"
  },
  {
    "name": "Elgin Park Road Dispersed",
    "description": "",
    "url": "https://www.youtube.com/embed/gpm9THujEow",
    "lat": 44.2503684,
    "lon": -106.9085579,
    "src": "tws",
    "fee": "Unknown",
    "org": "Unknown",
    "ratings_count": 0,
    "ratings_value": 0,
    "type": "campsite"
  },
  {
    "name": "Muddy Creek Dispersed",
    "description": "",
    "url": "https://www.youtube.com/embed/JQuMM7ET0yQ",
    "lat": 44.1626058,
    "lon": -106.9179293,
    "src": "tws",
    "fee": "Unknown",
    "org": "Unknown",
    "ratings_count": 0,
    "ratings_value": 0,
    "type": "campsite"
  },
  {
    "name": "Hazelton Dispersed",
    "description": "",
    "url": "https://www.youtube.com/embed/JQuMM7ET0yQ",
    "lat": 44.1505493,
    "lon": -106.9330922,
    "src": "tws",
    "fee": "Unknown",
    "org": "Unknown",
    "ratings_count": 0,
    "ratings_value": 0,
    "type": "campsite"
  },
  {
    "name": "Canyon Creek Disperesed",
    "description": "",
    "url": "https://www.youtube.com/embed/ztjOGUjNkfo",
    "lat": 44.1607298,
    "lon": -107.1285143,
    "src": "tws",
    "fee": "Unknown",
    "org": "Unknown",
    "ratings_count": 0,
    "ratings_value": 0,
    "type": "campsite"
  },
  {
    "name": "Forest Road 300 / Louis Lake Road",
    "description": "",
    "url": "https://www.youtube.com/embed/2M8fVdsVGb0",
    "lat": 42.6889114,
    "lon": -108.890247,
    "src": "tws",
    "fee": "Unknown",
    "org": "Unknown",
    "ratings_count": 0,
    "ratings_value": 0,
    "type": "campsite"
  },
  {
    "name": "Below The Dam Dispersed",
    "description": "",
    "url": "https://www.youtube.com/embed/yE5JGc9aHdY",
    "lat": 43.3394499,
    "lon": -111.2089261,
    "src": "tws",
    "fee": "Unknown",
    "org": "Unknown",
    "ratings_count": 0,
    "ratings_value": 0,
    "type": "campsite"
  },
  {
    "name": "Soda Lake Dispersed",
    "description": "",
    "url": "https://www.youtube.com/embed/756Ig4baWtI",
    "lat": 42.9590065,
    "lon": -109.8578993,
    "src": "tws",
    "fee": "Unknown",
    "org": "Unknown",
    "ratings_count": 0,
    "ratings_value": 0,
    "type": "campsite"
  },
  {
    "name": "Forest Road 281 Dispersed",
    "description": "",
    "url": "https://www.youtube.com/embed/zSalP7IestE",
    "lat": 43.2597665,
    "lon": -111.0700975,
    "src": "tws",
    "fee": "Unknown",
    "org": "Unknown",
    "ratings_count": 0,
    "ratings_value": 0,
    "type": "campsite"
  },
  {
    "name": "Russell Creek Dispersed",
    "description": "",
    "url": "https://www.youtube.com/embed/yE5JGc9aHdY",
    "lat": 43.3452271,
    "lon": -111.2215267,
    "src": "tws",
    "fee": "Unknown",
    "org": "Unknown",
    "ratings_count": 0,
    "ratings_value": 0,
    "type": "campsite"
  },
  {
    "name": "Big Meadow Dispersed",
    "description": "",
    "url": "https://www.youtube.com/embed/yE5JGc9aHdY",
    "lat": 43.3565911,
    "lon": -111.2372241,
    "src": "tws",
    "fee": "Unknown",
    "org": "Unknown",
    "ratings_count": 0,
    "ratings_value": 0,
    "type": "campsite"
  },
  {
    "name": "Bonneville Salt Flats Dispersed",
    "description": "",
    "url": "https://www.youtube.com/embed/jspm1hjKmtw",
    "lat": 40.7701144,
    "lon": -113.981282,
    "src": "tws",
    "fee": "Unknown",
    "org": "Unknown",
    "ratings_count": 0,
    "ratings_value": 0,
    "type": "campsite"
  },
  {
    "name": "Tom's Best Spring Dispersed",
    "description": "",
    "url": "https://www.youtube.com/embed/s2bVVRGDje0",
    "lat": 37.7198116,
    "lon": -112.2552856,
    "src": "tws",
    "fee": "Unknown",
    "org": "Unknown",
    "ratings_count": 0,
    "ratings_value": 0,
    "type": "campsite"
  },
  {
    "name": "Snowbird Mesa",
    "description": "",
    "url": "https://www.youtube.com/embed/czZyCd0AHPw",
    "lat": 36.4848391,
    "lon": -114.4442333,
    "src": "tws",
    "fee": "Unknown",
    "org": "Unknown",
    "ratings_count": 0,
    "ratings_value": 0,
    "type": "campsite"
  },
  {
    "name": "Poverty flats camping",
    "description": "",
    "url": "https://www.youtube.com/embed/czZyCd0AHPw",
    "lat": 36.4814957,
    "lon": -114.4536718,
    "src": "tws",
    "fee": "Unknown",
    "org": "Unknown",
    "ratings_count": 0,
    "ratings_value": 0,
    "type": "campsite"
  },
  {
    "name": "Sand Canyon camp 15",
    "description": "",
    "url": "https://www.youtube.com/embed/czZyCd0AHPw",
    "lat": 36.4716034,
    "lon": -114.4423635,
    "src": "tws",
    "fee": "Unknown",
    "org": "Unknown",
    "ratings_count": 0,
    "ratings_value": 0,
    "type": "campsite"
  },
  {
    "name": "Stewarts Point Dispersed",
    "description": "",
    "url": "https://www.youtube.com/embed/czZyCd0AHPw",
    "lat": 36.3945041,
    "lon": -114.424676,
    "src": "tws",
    "fee": "Unknown",
    "org": "Unknown",
    "ratings_count": 0,
    "ratings_value": 0,
    "type": "campsite"
  },
  {
    "name": "Palisades Reservoir Dispersed",
    "description": "",
    "url": "https://www.youtube.com/embed/U3RcFG0Ycpk",
    "lat": 43.2489635,
    "lon": -111.1038654,
    "src": "tws",
    "fee": "Unknown",
    "org": "Unknown",
    "ratings_count": 0,
    "ratings_value": 0,
    "type": "campsite"
  },
  {
    "name": "Paria Contact Station Dispersed (Overlook)",
    "description": "",
    "url": "https://www.youtube.com/embed/HmcIqOO5pRQ",
    "lat": 37.1018644,
    "lon": -111.9025904,
    "src": "tws",
    "fee": "Unknown",
    "org": "Unknown",
    "ratings_count": 0,
    "ratings_value": 0,
    "type": "campsite"
  },
  {
    "name": "American Girl Mine Dispersed",
    "description": "",
    "url": "https://www.youtube.com/embed/XZRaOBQY7c4",
    "lat": 32.8379573,
    "lon": -114.8114569,
    "src": "tws",
    "fee": "Unknown",
    "org": "Unknown",
    "ratings_count": 0,
    "ratings_value": 0,
    "type": "campsite"
  },
  {
    "name": "Plomosa Road BLM Camping Area Campground Quartzsite",
    "description": "",
    "url": "https://www.youtube.com/embed/EWgiXf8pOek",
    "lat": 33.7485242,
    "lon": -114.2158953,
    "src": "tws",
    "fee": "Unknown",
    "org": "Unknown",
    "ratings_count": 0,
    "ratings_value": 0,
    "type": "campsite"
  },
  {
    "name": "Hi Jolly Campground",
    "description": "",
    "url": "https://www.youtube.com/embed/EWgiXf8pOek",
    "lat": 33.7093864,
    "lon": -114.2158517,
    "src": "tws",
    "fee": "Unknown",
    "org": "Unknown",
    "ratings_count": 0,
    "ratings_value": 0,
    "type": "campsite"
  },
  {
    "name": "Dome Rock Upper Campsite",
    "description": "",
    "url": "https://www.youtube.com/embed/EWgiXf8pOek",
    "lat": 33.6417957,
    "lon": -114.3057422,
    "src": "tws",
    "fee": "Unknown",
    "org": "Unknown",
    "ratings_count": 0,
    "ratings_value": 0,
    "type": "campsite"
  },
  {
    "name": "Road Runner 14-day Camping Area",
    "description": "",
    "url": "",
    "lat": 33.580725,
    "lon": -114.2181342,
    "src": "tws",
    "fee": "Unknown",
    "org": "Unknown",
    "ratings_count": 0,
    "ratings_value": 0,
    "type": "campsite"
  },
  {
    "name": "Palm Canyon Dispersed",
    "description": "",
    "url": "https://www.youtube.com/embed/EWgiXf8pOek",
    "lat": 33.3636143,
    "lon": -114.1480636,
    "src": "tws",
    "fee": "Unknown",
    "org": "Unknown",
    "ratings_count": 0,
    "ratings_value": 0,
    "type": "campsite"
  },
  {
    "name": "Kofa View Dispersed",
    "description": "",
    "url": "https://www.youtube.com/embed/EWgiXf8pOek",
    "lat": 33.4893373,
    "lon": -114.1820378,
    "src": "tws",
    "fee": "Unknown",
    "org": "Unknown",
    "ratings_count": 0,
    "ratings_value": 0,
    "type": "campsite"
  },
  {
    "name": "Buffalo Lake National Wildlife Refuge Admin Building and Visitor Contact Station",
    "description": "",
    "url": "https://www.youtube.com/embed/xVLQWsDnmdA",
    "lat": 34.9193846,
    "lon": -102.1113639,
    "src": "tws",
    "fee": "Unknown",
    "org": "Unknown",
    "ratings_count": 0,
    "ratings_value": 0,
    "type": "campsite"
  },
  {
    "name": "Soap Creek (Site 1)",
    "description": "",
    "url": "https://www.youtube.com/embed/6Rp2QHxAgrc",
    "lat": 38.5188103,
    "lon": -107.3121748,
    "src": "tws",
    "fee": "Unknown",
    "org": "Unknown",
    "ratings_count": 0,
    "ratings_value": 0,
    "type": "campsite"
  },
  {
    "name": "Soap Creek (Site 2)",
    "description": "",
    "url": "https://www.youtube.com/embed/6Rp2QHxAgrc",
    "lat": 38.5281181,
    "lon": -107.3181856,
    "src": "tws",
    "fee": "Unknown",
    "org": "Unknown",
    "ratings_count": 0,
    "ratings_value": 0,
    "type": "campsite"
  },
  {
    "name": "Soap Creek (Site 3)",
    "description": "",
    "url": "https://www.youtube.com/embed/6Rp2QHxAgrc",
    "lat": 38.5323096,
    "lon": -107.3191835,
    "src": "tws",
    "fee": "Unknown",
    "org": "Unknown",
    "ratings_count": 0,
    "ratings_value": 0,
    "type": "campsite"
  },
  {
    "name": "Soap Creek (Site 4)",
    "description": "",
    "url": "https://www.youtube.com/embed/6Rp2QHxAgrc",
    "lat": 38.5332578,
    "lon": -107.3181623,
    "src": "tws",
    "fee": "Unknown",
    "org": "Unknown",
    "ratings_count": 0,
    "ratings_value": 0,
    "type": "campsite"
  },
  {
    "name": "Soap Creek (Site 5)",
    "description": "",
    "url": "https://www.youtube.com/embed/6Rp2QHxAgrc",
    "lat": 38.5350289,
    "lon": -107.3153414,
    "src": "tws",
    "fee": "Unknown",
    "org": "Unknown",
    "ratings_count": 0,
    "ratings_value": 0,
    "type": "campsite"
  },
  {
    "name": "McCoy Flats Dispersed ",
    "description": "",
    "url": "https://www.youtube.com/embed/jLUeJEoLgh0",
    "lat": 40.3899336,
    "lon": -109.5953465,
    "src": "tws",
    "fee": "Unknown",
    "org": "Unknown",
    "ratings_count": 0,
    "ratings_value": 0,
    "type": "campsite"
  },
  {
    "name": "Forest Road 217",
    "description": "",
    "url": "https://www.youtube.com/embed/Jw8vSlZ5ebM",
    "lat": 40.7153942,
    "lon": -109.4754173,
    "src": "tws",
    "fee": "Unknown",
    "org": "Unknown",
    "ratings_count": 0,
    "ratings_value": 0,
    "type": "campsite"
  },
  {
    "name": "Forest Road 181",
    "description": "",
    "url": "https://www.youtube.com/embed/Jw8vSlZ5ebM",
    "lat": 40.7158897,
    "lon": -109.4812244,
    "src": "tws",
    "fee": "Unknown",
    "org": "Unknown",
    "ratings_count": 0,
    "ratings_value": 0,
    "type": "campsite"
  },
  {
    "name": "Limestone Road Dispersed",
    "description": "",
    "url": "https://www.youtube.com/embed/Jw8vSlZ5ebM",
    "lat": 40.723608,
    "lon": -109.4682298,
    "src": "tws",
    "fee": "Unknown",
    "org": "Unknown",
    "ratings_count": 0,
    "ratings_value": 0,
    "type": "campsite"
  },
  {
    "name": "Forest Road 063",
    "description": "",
    "url": "https://www.youtube.com/embed/Jw8vSlZ5ebM",
    "lat": 40.7051634,
    "lon": -109.4958174,
    "src": "tws",
    "fee": "Unknown",
    "org": "Unknown",
    "ratings_count": 0,
    "ratings_value": 0,
    "type": "campsite"
  },
  {
    "name": "Birch Creek Campground",
    "description": "",
    "url": "https://www.youtube.com/embed/6cNXzdVg-O0",
    "lat": 44.137208,
    "lon": -112.8994131,
    "src": "tws",
    "fee": "Unknown",
    "org": "Unknown",
    "ratings_count": 0,
    "ratings_value": 0,
    "type": "campsite"
  },
  {
    "name": "Yankee Fork",
    "description": "",
    "url": "https://www.youtube.com/embed/cS7VWxxOzW8",
    "lat": 44.3598308,
    "lon": -114.7265247,
    "src": "tws",
    "fee": "Unknown",
    "org": "Unknown",
    "ratings_count": 0,
    "ratings_value": 0,
    "type": "campsite"
  },
  {
    "name": "Yankee Fork",
    "description": "",
    "url": "https://www.youtube.com/embed/cS7VWxxOzW8",
    "lat": 44.3502803,
    "lon": -114.7256928,
    "src": "tws",
    "fee": "Unknown",
    "org": "Unknown",
    "ratings_count": 0,
    "ratings_value": 0,
    "type": "campsite"
  },
  {
    "name": "Yankee Fork",
    "description": "",
    "url": "https://www.youtube.com/embed/cS7VWxxOzW8",
    "lat": 44.3816203,
    "lon": -114.7150038,
    "src": "tws",
    "fee": "Unknown",
    "org": "Unknown",
    "ratings_count": 0,
    "ratings_value": 0,
    "type": "campsite"
  },
  {
    "name": "Yankee Fork",
    "description": "",
    "url": "https://www.youtube.com/embed/cS7VWxxOzW8",
    "lat": 44.3831646,
    "lon": -114.7089899,
    "src": "tws",
    "fee": "Unknown",
    "org": "Unknown",
    "ratings_count": 0,
    "ratings_value": 0,
    "type": "campsite"
  },
  {
    "name": "Yankee Fork",
    "description": "",
    "url": "https://www.youtube.com/embed/cS7VWxxOzW8",
    "lat": 44.383846,
    "lon": -114.7073165,
    "src": "tws",
    "fee": "Unknown",
    "org": "Unknown",
    "ratings_count": 0,
    "ratings_value": 0,
    "type": "campsite"
  },
  {
    "name": "Yankee Fork",
    "description": "",
    "url": "https://www.youtube.com/embed/cS7VWxxOzW8",
    "lat": 44.3948356,
    "lon": -114.6790493,
    "src": "tws",
    "fee": "Unknown",
    "org": "Unknown",
    "ratings_count": 0,
    "ratings_value": 0,
    "type": "campsite"
  },
  {
    "name": "Yankee Fork",
    "description": "",
    "url": "https://www.youtube.com/embed/cS7VWxxOzW8",
    "lat": 44.3959115,
    "lon": -114.6748401,
    "src": "tws",
    "fee": "Unknown",
    "org": "Unknown",
    "ratings_count": 0,
    "ratings_value": 0,
    "type": "campsite"
  },
  {
    "name": "Canyon Ferry Dispersed",
    "description": "",
    "url": "https://www.youtube.com/embed/jCQfklTPgpk",
    "lat": 46.4707698,
    "lon": -111.5146733,
    "src": "tws",
    "fee": "Unknown",
    "org": "Unknown",
    "ratings_count": 0,
    "ratings_value": 0,
    "type": "campsite"
  },
  {
    "name": "Canyon Ferry Dispersed",
    "description": "",
    "url": "https://www.youtube.com/embed/jCQfklTPgpk",
    "lat": 46.4678737,
    "lon": -111.5131098,
    "src": "tws",
    "fee": "Unknown",
    "org": "Unknown",
    "ratings_count": 0,
    "ratings_value": 0,
    "type": "campsite"
  },
  {
    "name": "Duck Creek Campground",
    "description": "",
    "url": "https://www.youtube.com/embed/jCQfklTPgpk",
    "lat": 46.4619378,
    "lon": -111.5129771,
    "src": "tws",
    "fee": "Unknown",
    "org": "Unknown",
    "ratings_count": 0,
    "ratings_value": 0,
    "type": "campsite"
  },
  {
    "name": "Canyon Ferry Dispersed",
    "description": "",
    "url": "https://www.youtube.com/embed/jCQfklTPgpk",
    "lat": 46.471597,
    "lon": -111.5142443,
    "src": "tws",
    "fee": "Unknown",
    "org": "Unknown",
    "ratings_count": 0,
    "ratings_value": 0,
    "type": "campsite"
  },
  {
    "name": "Confederate Campground Dispersed",
    "description": "",
    "url": "https://www.youtube.com/embed/jCQfklTPgpk",
    "lat": 46.4823908,
    "lon": -111.5165554,
    "src": "tws",
    "fee": "Unknown",
    "org": "Unknown",
    "ratings_count": 0,
    "ratings_value": 0,
    "type": "campsite"
  },
  {
    "name": "Confederate Day-Use",
    "description": "",
    "url": "https://www.youtube.com/embed/jCQfklTPgpk",
    "lat": 46.4886984,
    "lon": -111.526299,
    "src": "tws",
    "fee": "Unknown",
    "org": "Unknown",
    "ratings_count": 0,
    "ratings_value": 0,
    "type": "campsite"
  },
  {
    "name": "Palisades Reservoir South Dispersed Camping",
    "description": "",
    "url": "https://www.youtube.com/embed/Qe8_MYHum4I",
    "lat": 43.1651497,
    "lon": -111.0406045,
    "src": "tws",
    "fee": "Unknown",
    "org": "Unknown",
    "ratings_count": 0,
    "ratings_value": 0,
    "type": "campsite"
  },
  {
    "name": "Cave Mountain Campground",
    "description": "",
    "url": "",
    "lat": 47.8913889,
    "lon": -112.7269444,
    "src": "tws",
    "fee": "Unknown",
    "org": "Unknown",
    "ratings_count": 0,
    "ratings_value": 0,
    "type": "campsite"
  },
  {
    "name": "Lewis & Clark Site 1 & 2",
    "description": "",
    "url": "",
    "lat": 47.8876998,
    "lon": -112.7221857,
    "src": "tws",
    "fee": "Unknown",
    "org": "Unknown",
    "ratings_count": 0,
    "ratings_value": 0,
    "type": "campsite"
  },
  {
    "name": "Lewis & Clark Site 3",
    "description": "",
    "url": "",
    "lat": 47.9040054,
    "lon": -112.727009,
    "src": "tws",
    "fee": "Unknown",
    "org": "Unknown",
    "ratings_count": 0,
    "ratings_value": 0,
    "type": "campsite"
  },
  {
    "name": "Lewis & Clark Site 4",
    "description": "",
    "url": "",
    "lat": 47.9146532,
    "lon": -112.7364512,
    "src": "tws",
    "fee": "Unknown",
    "org": "Unknown",
    "ratings_count": 0,
    "ratings_value": 0,
    "type": "campsite"
  },
  {
    "name": "Canyon Ferry Inlet Campsite",
    "description": "",
    "url": "https://www.youtube.com/embed/jCQfklTPgpk",
    "lat": 46.4610362,
    "lon": -111.5049798,
    "src": "tws",
    "fee": "Unknown",
    "org": "Unknown",
    "ratings_count": 0,
    "ratings_value": 0,
    "type": "campsite"
  },
  {
    "name": "Glacier National Park",
    "description": "",
    "url": "https://www.youtube.com/embed/7_yx6PPOtAo",
    "lat": 48.756063,
    "lon": -113.7797316,
    "src": "tws",
    "fee": "Unknown",
    "org": "Unknown",
    "ratings_count": 0,
    "ratings_value": 0,
    "type": "campsite"
  },
  {
    "name": "Million Dollar North Public Access",
    "description": "",
    "url": "https://www.youtube.com/embed/SNShbhmi58o",
    "lat": 47.7555395,
    "lon": -119.2244683,
    "src": "tws",
    "fee": "Unknown",
    "org": "Unknown",
    "ratings_count": 0,
    "ratings_value": 0,
    "type": "campsite"
  }
]
